{
  "slug": "inagi",
  "name": "稲城市",
  "nameEn": "Inagi City",
  "fullName": "東京都稲城市",
  "area": "tama",
  "center": { "lat": 35.6383, "lng": 139.5046 },
  "bounds": [[35.610, 139.470], [35.665, 139.540]],
  "initialZoom": 13,
  "elevExaggeration": 4.0,
  "theme": {
    "main": "#43a047",
    "mainLight": "#76d275",
    "sub": "#ec407a",
    "accent": "#1b5e20",
    "cream": "#f1f8e9"
  },
  "icon": "🍐",
  "description": "多摩川低地と多摩丘陵が接する自然豊かな街。北部は多摩川沿いの平坦地、南部は多摩丘陵の起伏が広がり、梨とぶどうの名産地として知られる。",
  "hazardPriority": ["flood", "landslide", "flood_duration"],
  "poi": {
    "yakusho": [
      { "name": "稲城市役所", "lat": 35.6383, "lng": 139.5046 }
    ],
    "shisetsu": [
      { "name": "稲城市立中央図書館", "lat": 35.6395, "lng": 139.5040 },
      { "name": "稲城市立iプラザ図書館", "lat": 35.6232, "lng": 139.5057 },
      { "name": "稲城市総合体育館", "lat": 35.6429, "lng": 139.5071 },
      { "name": "稲城中央公園総合グラウンド", "lat": 35.6420, "lng": 139.5095 },
      { "name": "稲城市福祉センター", "lat": 35.6378, "lng": 139.5052 },
      { "name": "稲城市役所第二庁舎", "lat": 35.6385, "lng": 139.5050 },
      { "name": "城山文化センター", "lat": 35.6291, "lng": 139.4827 },
      { "name": "iプラザ（若葉台）", "lat": 35.6232, "lng": 139.5057 },
      { "name": "稲城市消防本部", "lat": 35.6380, "lng": 139.5028 },
      { "name": "稲城市保健センター", "lat": 35.6388, "lng": 139.5045 },
      { "name": "向陽台地区市民館", "lat": 35.6310, "lng": 139.4910 },
      { "name": "長峰地区市民館", "lat": 35.6258, "lng": 139.4970 }
    ],
    "eki": [
      { "name": "稲城駅", "lat": 35.6396, "lng": 139.5051 },
      { "name": "京王よみうりランド駅", "lat": 35.6275, "lng": 139.5193 },
      { "name": "稲城長沼駅", "lat": 35.6432, "lng": 139.4948 },
      { "name": "南多摩駅", "lat": 35.6471, "lng": 139.4836 },
      { "name": "若葉台駅", "lat": 35.6225, "lng": 139.5037 },
      { "name": "矢野口駅", "lat": 35.6438, "lng": 139.5080 }
    ],
    "kouen": [
      { "name": "稲城中央公園", "lat": 35.6418, "lng": 139.5089 },
      { "name": "城山公園", "lat": 35.6298, "lng": 139.4825 },
      { "name": "南山東部地区公園", "lat": 35.6280, "lng": 139.5160 },
      { "name": "穴澤天神社公園", "lat": 35.6313, "lng": 139.5238 },
      { "name": "若葉台公園", "lat": 35.6196, "lng": 139.5045 },
      { "name": "上谷戸親水公園", "lat": 35.6240, "lng": 139.4995 },
      { "name": "三沢川親水公園", "lat": 35.6357, "lng": 139.5160 },
      { "name": "多摩川緑地", "lat": 35.6470, "lng": 139.5020 },
      { "name": "向陽台中央公園", "lat": 35.6310, "lng": 139.4900 }
    ],
    "jisha": [
      { "name": "穴澤天神社", "lat": 35.6310, "lng": 139.5240 },
      { "name": "妙覚寺", "lat": 35.6410, "lng": 139.5100 },
      { "name": "高勝寺", "lat": 35.6396, "lng": 139.4980 },
      { "name": "常楽寺", "lat": 35.6325, "lng": 139.4830 },
      { "name": "圓照寺", "lat": 35.6440, "lng": 139.4900 },
      { "name": "青渭神社", "lat": 35.6345, "lng": 139.4920 },
      { "name": "大麻止乃豆乃天神社", "lat": 35.6398, "lng": 139.4854 },
      { "name": "妙見寺", "lat": 35.6360, "lng": 139.4930 }
    ],
    "hinanjo_shitei": [
      { "name": "稲城市立稲城第一小学校", "lat": 35.6402, "lng": 139.5010 },
      { "name": "稲城市立稲城第二小学校", "lat": 35.6440, "lng": 139.4950 },
      { "name": "稲城市立稲城第三小学校", "lat": 35.6320, "lng": 139.5080 },
      { "name": "稲城市立稲城第四小学校", "lat": 35.6360, "lng": 139.4870 },
      { "name": "稲城市立稲城第五小学校", "lat": 35.6450, "lng": 139.5085 },
      { "name": "稲城市立稲城第六小学校", "lat": 35.6310, "lng": 139.4920 },
      { "name": "稲城市立稲城第七小学校", "lat": 35.6260, "lng": 139.4985 },
      { "name": "稲城市立平尾小学校", "lat": 35.6210, "lng": 139.4870 },
      { "name": "稲城市立若葉台小学校", "lat": 35.6225, "lng": 139.5060 },
      { "name": "稲城市立稲城第一中学校", "lat": 35.6395, "lng": 139.5025 },
      { "name": "稲城市立稲城第二中学校", "lat": 35.6320, "lng": 139.5070 },
      { "name": "稲城市立稲城第三中学校", "lat": 35.6360, "lng": 139.4900 },
      { "name": "稲城市立稲城第四中学校", "lat": 35.6240, "lng": 139.4880 },
      { "name": "稲城市立稲城第五中学校", "lat": 35.6225, "lng": 139.5050 },
      { "name": "稲城市立南山小学校", "lat": 35.6290, "lng": 139.5145 }
    ],
    "hinanjo_kinkyu": [
      { "name": "稲城中央公園", "lat": 35.6418, "lng": 139.5089 },
      { "name": "城山公園", "lat": 35.6298, "lng": 139.4825 },
      { "name": "若葉台公園", "lat": 35.6196, "lng": 139.5045 },
      { "name": "向陽台中央公園", "lat": 35.6310, "lng": 139.4900 },
      { "name": "南山東部地区公園", "lat": 35.6280, "lng": 139.5160 },
      { "name": "多摩川緑地", "lat": 35.6470, "lng": 139.5020 }
    ],
    "hinanjo_kouiki": [
      { "name": "稲城中央公園広域避難場所", "lat": 35.6418, "lng": 139.5089 },
      { "name": "城山公園広域避難場所", "lat": 35.6298, "lng": 139.4825 },
      { "name": "若葉台公園広域避難場所", "lat": 35.6196, "lng": 139.5045 }
    ],
    "hinanjo_fukushi": [
      { "name": "稲城市福祉センター", "lat": 35.6378, "lng": 139.5052 },
      { "name": "稲城市総合体育館", "lat": 35.6429, "lng": 139.5071 },
      { "name": "iプラザ", "lat": 35.6232, "lng": 139.5057 },
      { "name": "城山文化センター", "lat": 35.6291, "lng": 139.4827 }
    ]
  },
  "notes": "POI座標は公開情報をもとにした概算です。正確な位置は各施設の公式情報をご確認ください。避難所指定については稲城市防災マップの最新情報を参照してください。多摩丘陵南部は土砂災害警戒区域が指定されているエリアがあるため、ハザードマップで確認してください。"
}
